glacier_name,Glacier_ID,Down_glacier_direction,Distance from terminus,channel_width_100m_from_lowest_point,channel_width_from_below,channel_width_Q,channel_width_100_above_station,channel_width_at_station,lat,lon,relief,stddev,relief_0.1,relief_1,relief_10,relief_20,relief_100,mean_wind_obs,stddev_1,stddev_10,stddev_20,stddev_100,Slope_120m,Slope_60m,Slope_1km,Slope_10km,Slope_1km_20p,aspect_eastness_0.1km,aspect_eastness_1km,aspect_northness_0.1km,aspect_northness_1km,aspect_1km_50p,rgi_aspect,rgi_slope,station_z,Z_max,Z_min,glacier_length,glacier_area,glacier_width,glacier_width_at_station,Unnamed: 40,Distance from head,Distance from centerline,continentality,sensitivity,delay,A,B,mean_temp_era5,mean_wind_era5,mean_temp_obs,T_range_continentality,rel_distance_from_terminus,localtime,Mean_elev
Arolla,RGI2000-v7.0-G-11-01247,166,2.005,1.06,0.949,1,1.18,0.71559,45.97,7.52,2439,4.660710485,17,399,3000,3000,4387,3.318031988,59.51679731,373.4526332,475.9871962,772.0637542,0.003034363,0.008812765,0.008812765,27.70668644,5.377618533,-0.420052682,0.275258443,0.887039108,0.636537862,64.65217391,9,16.44,2851.751592,3467,2546,4.356,3.7984,0.871992654,0.71559,,2.12,0.220798,32.07701931,0.102681458,2.470335842,0.102681458,-0.253657685,7.023303974,0.86554078,8.410577709,22.46289063,0.460284665,1,2839.551342
Balcony,RGI2000-v7.0-G-15-08331,257,,,,,,,27.9826,86.9292,,,,,,,,,,,,,,,,,,,,,,,,,8323,,,,,,,,,,,,,,,,,,,,0,8358.942188
Bellavista,RGI2000-v7.0-G-11-03243,250,-0.983,0.783,0.58,0,1.11,2,46.78284,10.79138,,9.029249346,24,435,2395,2395,3675,3.577623842,89.73548101,375.9041724,399.205892,699.4236633,0.010280821,0.008095141,0.008095141,,,,,,,,340.2,15.3,2799,2657,3405,3.183,3.09,0.970782281,1.47,,1.649,1.177,26.89,,,,,,,,20.12,-0.30882815,1,2818.282572
Bishop,RGI2000-v7.0-G-15-08331,90,18.3,1.04,1.05,0,1.35,1.420791545,27.9735,86.9308,2577,5.462585812,21,405,4486,4486,8317,2.315317701,92.07092416,845.3285524,715.2857717,1277.494468,0.296689272,0.040730692,0.040730692,37.77062876,16.90969887,-0.588609501,-0.077595341,0.357122951,-0.116743289,204.2891156,303,23.56,7857.022222,7981,4879,18.546,26.35,1.420791545,,,0.087,0.476,33.32736931,0.182017846,0.85462188,0.182017846,-0.155556434,0.914878469,0.68789106,-16.94311232,24.10099792,0.986735684,0,7888.399211
Camp2,RGI2000-v7.0-G-15-08331,150,14.103,1,0.628,1,1.21,0.65,27.981,86.9023,4507,10.65345455,40,576,4607,4607,8292,1.006269192,102.3060144,848.1885654,763.6817028,1253.931466,0.296689272,0.040730692,0.040730692,37.26445936,10.07568777,-0.613510313,-0.474280801,-0.666199758,-0.216758794,222.462556,303,23.56,6484.964856,7981,4879,18.546,26.35,1.420791545,2.088,,3.043,0.39,32.99166523,0.087329131,1.066935882,0.087329131,-0.093174584,-1.316530725,0.788734246,-3.311150755,16.88037109,0.760433517,0,6474.495041
Chottashigri,RGI2000-v7.0-G-14-30579,260,4.913,1.31,1.146,1,2.13,0.608,32.228297,77.506293,3010,15.89368979,49,296,3015,3015,5728,2.359289739,71.3046837,388.5689815,526.7470299,1152.371914,0.261526883,0.055946875,0.055946875,27.74906412,6.410460434,0.949561759,0.551908727,0.242092725,0.055814497,98.26315789,338.5,16.9,4870.749206,5752,4273,9.516,16.764,1.761664565,0.608,,4.76,0.281,46.41871021,0.335721424,1.279230521,0.335721424,-0.429465092,3.457245516,0.767844293,3.576515426,24.06958008,0.516288356,1,4860.738623
Corbassiere,RGI2000-v7.0-G-11-00823,157,1.781,1.36,0.897,1,1.36,0.97,45.996315,7.291944,,4.196352583,14,343,3528,3528,4501,3.12008547,58.05059551,577.0967863,618.5444656,761.7422994,0.003034363,0.008812765,0.00846821,,,,,,,,353,17.8,2561,4267,2234,8.98,16.71,1.860801782,0.77,,7.349,0.018,31.91,,,,,,,,22.38,0.198329621,1,2523.395769
Djankuat,RGI2000-v7.0-G-12-00647,130,1.176,0.853,0.616,1,0.961,1.217,43.198,42.757,3119,7.779513695,25,393,3149,3149,5094,3.963628704,97.11901055,437.8489401,558.5766797,731.4355554,0.109018967,0.016885024,0.016885024,30.24965442,12.58401169,-0.387476036,-0.432026427,0.874252392,0.569333499,300.4006914,329.3,25.05,2975.605096,3706,2689.7,3.152,2.989,0.948286802,1.217,,1.677,0.114,41.56018593,0.025193282,-7.587328999,0.025193282,0.191149721,8.560823383,0.687363453,7.598983773,26.15673828,0.373096447,1,2983.446262
Drangdrung,RGI2000-v7.0-G-14-26914,224,8.004,2.45,1,1,2.59,1.492,33.787596,76.333945,2577,1.972026594,6,71,2526,2526,5812,4.19207221,14.48006249,400.4567333,453.8533852,737.4997491,0.213403076,0.05589956,0.05589956,26.21817746,2.951896109,0.400341754,0.338094198,0.450495205,0.368628595,82.1715439,3.49,13.9,4600.615873,6523,4079,24.737,68.36,2.763471723,1.492,,16.417,0.1642,45.21829593,0.241200909,1.980169446,0.241200909,-0.47761867,0.021489909,0.697072527,5.960437725,24.10099792,0.323563892,1,4588.997081
Hinterisferner,RGI2000-v7.0-G-11-03116,300,4.255,1.231,0.639,1,1.76,0.92,46.79867,10.76042,2316,6.575945221,23,346,2262,2262,3667,4.023811255,79.15113039,305.7873124,384.9585212,686.1367428,0.010280821,0.008095141,0.008095141,21.25548869,11.34125415,0.743137442,0.759212694,-0.211707596,-0.195799653,102.547605,77,18.1,3026.504762,3694,2413,8.548,8.036,0.940102948,0.92,,4.228,0.703,27.07775221,0.061075066,-1.736129374,0.061075066,0.106034216,4.189189024,0.786871799,5.598427858,20.22045898,0.497777258,1,3024.118577
Kalapathar,RGI2000-v7.0-G-15-06739,25,-0.56,0.796,0.689,1,1.19,0.55,27.96,86.81,4507,27.0692271,80,481,4173,4173,8366,1.993463113,113.0598157,351.1586431,626.9383633,1282.556399,0.296689272,0.040730692,0.040730692,23.74055804,10.83728713,0.016538397,0.11275381,-0.981706354,-0.332776183,170.3776379,303,23.56,5103.400631,7981,4879,1.73,0.83,0.479768786,0.577,,15.195,0.436,30.86469729,1.075057854,-0.184190907,1.075057854,0.198015882,0.818983381,0.865812958,0.543783779,16.61791992,-0.323699422,1,5095.734896
Kennikot,RGI2000-v7.0-G-01-05740,344,5.496,,4.5,1,5.96,5.1,61.4841,-142.9283,,1.414213562,4,50,1773,1773,4740,1.965662602,9.263435636,187.093511,384.1307008,784.2640494,0.047209304,0.012269396,0.012269396,,,,,,,,154,13.4,657,4952,407,44.9,292.5,6.514476615,4.56,,39.1,0.226,28.27,,,,,,,,23.58,0.122405345,1,608.1140607
Langenferner,RGI2000-v7.0-G-11-02875,250,1.281,,0.391,0,1.65,0.523278,46.47245,10.61391,2627,5.851756621,21,380,2623,2623,3730,3.302900907,82.91998407,332.8616364,454.6898426,701.1469498,0.010280821,0.008095141,0.008095141,23.75433778,13.68425149,0.940829362,0.675446157,-0.1630569,0.090853582,84.17444296,32,18.14,2954.449045,3399,2671,2.934,2.1629,0.737184731,0.523278,,1.775,0.253101,26.50067071,-0.067243296,-1.560588224,-0.067243296,-0.104939096,6.973101144,0.746077421,5.009774005,19.94726563,0.436605317,1,2957.259322
Lirung,RGI2000-v7.0-G-15-05739,303,1.792,0.922,0.383,1,1.18,0.361273,28.24,85.56,5025,14.43465881,48,572,4553,4553,7567,0.949922899,135.8730585,759.5799753,719.927965,1564.966084,0.301911384,0.028148301,0.028148301,31.7599224,11.88936185,-0.185666174,-0.053047411,-0.894256834,-0.702477754,194.3870968,139,32.48,4275.60443,7216,3988,8.57,4.786,0.558459743,0.361273,,5.934,0.281,28.287984,0.2504947,-0.024641785,0.2504947,0.006172637,6.536397181,0.78233097,8.454834009,15.40234375,0.209101517,1,4271.562606
Morimoto,RGI2000-v7.0-G-15-05844,132,,,,,,,28.25296,85.68152,,,,,,,,,,,,,,,,,,,,,,,,,4925,,,,,,,,,,,,,,,,,,,,1,4919.709614
Mullwitzkeez,RGI2000-v7.0-G-11-03803,30,1.455,0.87,1.94,0,1.412,1.412,47.0839,12.3634,,11.96332286,37,394,2547,2547,3207,2.410974746,89.48093625,332.3447284,480.9654033,600.6888984,0.019513212,0.003207142,0.003207142,,,,,,,,210.5,17.2,2976,3407,2644,3.066,3.01,0.98173516,1.412,,2.166,1.238,24.8,,,,,,,,19.16,0.474559687,0,2975.566272
Otemma,RGI2000-v7.0-G-11-00859,55,1.407,0.853,,1,1.1,3.16,45.956,7.454,,1.876388375,6,141,2494,2494,4402,3.529426451,22.46643272,328.3360498,442.4180886,776.2661185,0.003034363,0.008812765,0.008812765,,,,,,,,286,15,2683,3759,2453,8.69,11.75,1.352128884,0.69,,6.1,0.028,32.1,,,,,,,,22.47,0.161910242,1,2841.428934
Place1,RGI2000-v7.0-G-02-07366,160,0.913,1.25,1.65,1,1.3,0.922,50.426073,-122.601628,2511,2.325880956,6,178,2423,2423,2824,2.893004112,37.77694243,489.790308,566.7144807,555.0690409,0.060966317,0.02160316,0.02160316,28.21461916,4.685905546,0.119532441,-0.270861874,0.918554613,0.758932211,302.2306023,21.4,11.83,1970.368254,2560,1839,3.821,3.015,0.789060455,0.922,,2.909,0.007,25.70293348,0.047880957,-0.294943304,0.047880957,0.014122168,11.91807616,0.75243269,5.25542797,20.28979492,0.238942685,1,1951.20486
Place2,RGI2000-v7.0-G-02-07366,160,1.386,1.48,1.25,1,1.63,1.301,50.421835,-122.598482,2511,3.596873642,10,146,2498,2498,2843,3.112724046,31.65912403,442.9990809,567.8371143,555.6863897,0.060966317,0.02160316,0.02160316,29.26531234,3.704791784,-0.182977868,-0.107110069,0.94345934,0.745105019,180,21.4,11.83,2024.669841,2560,1839,3.821,3.015,0.789060455,1.301,,2.445,0.198,25.69362388,0.052630254,0.673176425,0.052630254,-0.035429446,11.89857616,0.75243269,5.171575451,20.28979492,0.362732269,1,2011.009024
Place3,RGI2000-v7.0-G-02-07366,160,1.899,1.32,1.9,0,2.9,0.906,50.414718,-122.600217,2511,4.904646323,17,401,2534,2534,2843,3.179561858,59.81428895,379.877652,580.9377072,556.3424806,0.060966317,0.02160316,0.02160316,29.26051819,5.687847103,0.403936247,0.621203255,0.905141871,0.504809269,56.88029804,21.4,11.83,2095,2560,1839,3.821,3.015,0.789060455,0.906,,2.027,0.421089,25.66349163,0.056502671,1.865068834,0.056502671,-0.105381371,11.84657616,0.75243269,5.695522727,20.28979492,0.496990317,1,2091.599605
Place4,RGI2000-v7.0-G-02-07366,42,,,,,,,50.412846,-122.615898,,,,,,,,,,,,,,,,,,,,,,,,,2330,,,,,,,,,,,,,,,,,,,,1,2309.265577
Pyramid,RGI2000-v7.0-G-15-08331,30,5.545,1.35,1.15,1,2.94,0.872,27.99,86.83,4237,16.45020897,59,428,4529,4529,8265,3.224457912,90.7405461,449.5057654,675.3717621,1200.63798,0.296689272,0.040730692,0.040730692,25.77159619,13.6165301,0.779555661,0.264402127,-0.610748457,-0.531775263,148.4286615,303,23.56,5410.542857,7981,4879,18.546,26.35,1.420791545,0.872,,11.841,1.292,31.89661326,0.461316354,1.321224562,0.461316354,-0.609502498,2.452417026,0.83500587,3.280989995,16.1496582,0.298986304,0,5406.767993
Satopanth,RGI2000-v7.0-G-15-00882,247,1.186,0.974,1.459,1,1.2,0.750868,30.773251,79.408794,3822,8.576630676,32,420,4318,4318,7148,1.223555704,64.91782094,565.2783277,729.6095362,1439.995984,0.326502889,0.055348579,0.055348579,32.74942441,5.70163121,0.868080238,0.356804589,0.36579402,0.323281019,98.30364372,34.36,19.7,3909.812698,7056,3755,20.106,57.04,2.83696409,0.750868,,13.503,0.042383,41.96477539,0.514601655,-0.20283153,0.514601655,0.104377441,3.055877426,0.799514221,10.481062,20.7175293,0.058987367,1,3900.70784
Schiaparelli,RGI2000-v7.0-G-17-15343,90,1.677,2.05,1.54,1,2.23,1.581,-54.4,-70.87,2185,2.869560071,10,105,2180,2180,2293,4.130529456,18.40521817,403.5579852,383.2407779,266.6679765,0.020881526,0.012010698,0.012010698,18.72838454,3.314959545,-0.717511512,-0.681947395,-0.642560238,-0.112598865,254,343,13.85,196.5348101,1953,4.79,10.831,24.7903,2.288828363,1.581,,9.21,0.358567,-30.12728056,0.102289346,0.906364491,0.102289346,-0.092711431,1.818933348,5.325776039,3.328122231,6.672363281,0.154833349,0,172.6333897
Southcol,RGI2000-v7.0-G-15-08331,257,,,,,,,27.9719,86.9295,,,,,,,,,,,,,,,,,,,,,,,,,7905,,,,,,,,,,,,,,,,,,,,0,7935.570178
Trakarding,RGI2000-v7.0-G-15-08533,52,0.42985,0.718,0.96,1,1.83,0.29821,27.843,86.487,3205,16.06670124,49,351,3258,3258,8307,1.631054633,92.04592469,467.7578452,532.7034206,1601.199158,0.296689272,0.040730692,0.040730692,28.76770398,11.88959402,0.837934365,0.502527601,0.412106025,0.485449298,56.29484029,327,16.99,4820.895238,6677,4545,17.869,32.09,1.795847557,0.29821,,17.535,0.65216,22.68107123,0.512998566,0.631176895,0.512998566,-0.323792842,3.422056537,0.756070596,5.107480108,13.8046875,0.024055627,1,4818.349591
Vernatferner,RGI2000-v7.0-G-11-03124,308,1.41,1.19,0.5,1,1.25,1.58,46.868939,10.802986,,9.688709602,30,304,2173,2173,3662,3.453794643,65.96651362,288.120823,389.2698162,683.289241,0.010280821,0.008095141,0.008095141,,,,,,,,154,15.7,3066,3574,2794,3.018,8.56,2.836315441,0.809,,1.755,0.425,26.57,,,,,,,,19.98,0.467196819,0,3070.209191
Weart1,RGI2000-v7.0-G-02-07402,200,2.929,1.64,1.46,1,1.7,1.325,50.155944,-122.760257,2455,7.559916914,22,199,2553,2553,2953,3.548298643,39.49202282,277.2470801,453.9096867,573.4797648,0.060966317,0.02160316,0.02160316,24.74616796,3.975985575,-0.182944917,-0.069421933,0.967438984,0.871653361,42.50528131,14.18,11.88,2164.47619,2759,1655,6.503,8.111,1.247270491,1.325,,3.71,0.178,24.13993496,0.068523458,2.732008134,0.068523458,-0.187206645,9.012362882,0.653672954,4.406618197,19.46020508,0.450407504,1,2156.297236
Weart2,RGI2000-v7.0-G-02-07402,200,5.108,1.45,1.02,0,1.66,0.683,50.138823,-122.775232,2455,4.099457959,11,225,2518,2518,2953,2.512556793,39.30963741,351.4318799,482.4784122,571.3954359,0.060966317,0.02160316,0.02160316,24.74863416,3.188904261,0.567065783,0.670841328,0.383047019,0.263345764,74.5,14.18,11.88,2298.203822,2759,1655,6.503,8.111,1.247270491,0.683,,1.479,0.072964,24.01008183,0.087362065,1.594488231,0.087362065,-0.139297784,9.003912882,0.653672954,5.225503842,19.46020508,0.785483623,1,2310.925466
Weissee,RGI2000-v7.0-G-11-03239,85,,,,,,,46.872909,10.714437,,,,,,,,,,,,,,,,,,,,,,,,,3507,,,,,,,,,,,,,,,,,,,,1,2465.415766
Yala,RGI2000-v7.0-G-15-05917,36,1.354,,0.94047619,0,0.648,0.648,28.23,85.62,3781,5.661762584,17,486,3516,3516,7538,1.114681788,112.9249811,609.2177873,555.1936894,1546.928357,0.301911384,0.028148301,0.028148301,30.26446685,13.7747694,-0.464834766,-0.684007905,-0.863520048,-0.583479294,228.9801634,225.8,22.72,5213.642405,5644,5080,2.184,2.054,0.94047619,0.648,,0.491,0.281151,28.98079014,0.069593185,2.592350898,0.069593185,-0.180409956,3.259881223,0.808418251,1.627204694,15.66137695,0.61996337,1,5202.667983
